City,Lat,Lng,Max Temp,Humidity,Cloudiness,Wind Speed,Country,Date,Description
Waitati,-45.75,170.57,46.99,67,89,17.0,NZ,2020-10-17 00:18:34,overcast clouds
Faanui,-16.48,-151.75,79.36,78,38,11.39,PF,2020-10-17 00:18:34,light rain
Severnoye,56.35,78.36,44.35,73,84,11.86,RU,2020-10-17 00:18:34,broken clouds
Yining,29.04,114.56,57.72,90,100,2.71,CN,2020-10-17 00:14:12,light rain
Ilulissat,69.22,-51.1,48.2,57,100,14.99,GL,2020-10-17 00:16:05,light rain
Illapel,-31.63,-71.17,59.5,63,0,0.92,CL,2020-10-17 00:18:35,clear sky
Kavaratti,10.57,72.64,81.37,76,27,16.49,IN,2020-10-17 00:18:35,light rain
Dawei,14.08,98.2,75.79,92,100,2.82,MM,2020-10-17 00:18:35,light rain
Aklavik,68.22,-135.01,23.0,49,20,10.29,CA,2020-10-17 00:13:56,few clouds
Provideniya,64.38,-173.3,41.13,80,80,10.96,RU,2020-10-17 00:18:35,broken clouds
Rikitea,-23.12,-134.97,73.87,81,99,19.75,PF,2020-10-17 00:18:35,overcast clouds
Bogovarovo,58.98,47.02,32.9,94,78,6.91,RU,2020-10-17 00:18:35,broken clouds
Hualmay,-11.1,-77.61,63.91,81,28,7.29,PE,2020-10-17 00:18:36,scattered clouds
Jamestown,42.1,-79.24,42.01,59,1,0.51,US,2020-10-17 00:18:36,clear sky
Carnarvon,-24.87,113.63,69.8,88,40,17.22,AU,2020-10-17 00:18:09,scattered clouds
Ribeira Grande,38.52,-28.7,64.27,71,18,9.4,PT,2020-10-17 00:18:36,few clouds
Kruisfontein,-34.0,24.73,59.31,88,11,4.85,ZA,2020-10-17 00:18:36,few clouds
Bredasdorp,-34.53,20.04,53.6,93,53,1.12,ZA,2020-10-17 00:18:36,broken clouds
Caravelas,-17.71,-39.25,74.05,80,100,11.54,BR,2020-10-17 00:18:37,overcast clouds
Thompson,55.74,-97.86,30.2,74,75,10.29,CA,2020-10-17 00:18:37,broken clouds
Gamba,-2.65,10.0,75.61,86,76,6.49,GA,2020-10-17 00:14:06,broken clouds
Lebu,-37.62,-73.65,51.26,95,5,2.57,CL,2020-10-17 00:18:37,clear sky
Bluff,-46.6,168.33,54.0,61,32,5.99,NZ,2020-10-17 00:18:37,scattered clouds
Arraial Do Cabo,-22.97,-42.03,70.12,73,70,9.08,BR,2020-10-17 00:18:37,broken clouds
Nikolskoye,59.7,30.79,39.2,69,90,2.24,RU,2020-10-17 00:18:38,overcast clouds
Kodiak,57.79,-152.41,46.4,65,1,4.7,US,2020-10-17 00:18:38,clear sky
Ushuaia,-54.8,-68.3,44.6,56,40,23.04,AR,2020-10-17 00:16:31,scattered clouds
Yellowknife,62.46,-114.35,26.01,92,90,18.34,CA,2020-10-17 00:18:38,light shower snow
Iqaluit,63.75,-68.51,33.8,100,90,5.82,CA,2020-10-17 00:18:38,light rain
Tezu,27.92,96.17,74.55,57,4,3.11,IN,2020-10-17 00:18:38,clear sky
Thinadhoo,0.53,72.93,82.69,77,61,19.39,MV,2020-10-17 00:18:38,light rain
Alofi,-19.06,-169.92,78.8,83,100,8.05,NU,2020-10-17 00:14:16,light rain
Senj,44.99,14.91,51.8,66,20,8.05,HR,2020-10-17 00:18:39,few clouds
Winona,43.97,-91.77,41.0,48,1,3.36,US,2020-10-17 00:18:13,clear sky
Bethel,41.37,-73.41,48.2,93,90,5.82,US,2020-10-17 00:14:00,overcast clouds
Qaanaaq,77.48,-69.36,30.99,87,100,6.89,GL,2020-10-17 00:18:39,overcast clouds
Vila Franca Do Campo,37.72,-25.43,62.6,93,75,10.29,PT,2020-10-17 00:18:39,broken clouds
Cabedelo,-6.98,-34.83,77.0,88,20,5.82,BR,2020-10-17 00:18:40,few clouds
Narsaq,60.92,-46.05,39.2,80,96,2.24,GL,2020-10-17 00:18:40,overcast clouds
Hobart,-42.88,147.33,50.0,70,75,5.82,AU,2020-10-17 00:14:07,broken clouds
Busselton,-33.65,115.33,57.99,76,0,8.75,AU,2020-10-17 00:18:40,clear sky
Santa Cruz Verapaz,15.37,-90.43,62.85,100,78,2.46,GT,2020-10-17 00:18:40,light rain
Baherden,38.44,57.43,56.39,34,0,4.09,TM,2020-10-17 00:18:40,clear sky
Synevyr,48.49,23.63,36.0,96,50,1.79,UA,2020-10-17 00:18:40,scattered clouds
Buala,-8.14,159.59,84.43,73,27,5.68,SB,2020-10-17 00:18:41,light rain
Garmisch-Partenkirchen,47.49,11.1,44.6,93,75,1.12,DE,2020-10-17 00:18:41,broken clouds
Bikaner,28.02,73.3,77.9,18,2,7.29,IN,2020-10-17 00:18:41,clear sky
Zaysan,47.47,84.87,41.94,57,0,3.2,KZ,2020-10-17 00:18:41,clear sky
Jasper,37.2,-94.35,62.6,20,40,6.93,US,2020-10-17 00:14:56,scattered clouds
Mpika,-11.83,31.45,66.45,60,23,5.95,ZM,2020-10-17 00:18:41,few clouds
Mahebourg,-20.41,57.7,68.0,94,20,5.82,MU,2020-10-17 00:18:42,few clouds
Punta Arenas,-53.15,-70.92,41.0,86,75,10.29,CL,2020-10-17 00:18:42,broken clouds
Abu Road,24.48,72.78,80.31,67,30,6.22,IN,2020-10-17 00:18:42,scattered clouds
Talnakh,69.49,88.4,14.0,92,79,6.71,RU,2020-10-17 00:18:42,broken clouds
Chuy,-33.7,-53.46,57.31,92,4,10.92,UY,2020-10-17 00:18:42,clear sky
Cherskiy,68.75,161.3,28.09,95,94,4.74,RU,2020-10-17 00:18:42,overcast clouds
Butaritari,3.07,172.79,81.72,76,0,14.25,KI,2020-10-17 00:18:42,clear sky
Sobolevo,54.43,31.9,35.96,85,5,5.39,RU,2020-10-17 00:18:42,clear sky
Wajir,1.75,40.06,78.17,62,40,16.96,KE,2020-10-17 00:18:43,scattered clouds
Hithadhoo,-0.6,73.08,83.46,75,95,19.57,MV,2020-10-17 00:18:43,overcast clouds
Susanville,40.42,-120.65,73.0,13,1,4.7,US,2020-10-17 00:18:41,clear sky
Tasiilaq,65.61,-37.64,37.4,64,48,25.28,GL,2020-10-17 00:18:43,scattered clouds
Geraldton,-28.77,114.6,64.4,52,90,13.87,AU,2020-10-17 00:18:43,overcast clouds
New Norfolk,-42.78,147.06,50.0,68,100,1.01,AU,2020-10-17 00:18:43,light rain
Cidreira,-30.18,-50.21,64.38,79,8,20.15,BR,2020-10-17 00:18:43,clear sky
Manono,-7.3,27.42,72.48,77,4,1.54,CD,2020-10-17 00:18:44,clear sky
Sulangan,11.14,123.72,83.37,74,99,6.15,PH,2020-10-17 00:18:44,overcast clouds
Leshukonskoye,64.9,45.76,30.79,98,100,5.14,RU,2020-10-17 00:14:10,overcast clouds
Bathsheba,13.22,-59.52,80.6,78,20,11.41,BB,2020-10-17 00:13:49,shower rain
Port Alfred,-33.59,26.89,63.93,82,11,16.96,ZA,2020-10-17 00:18:44,few clouds
Siavonga,-16.54,28.71,77.4,42,0,4.12,ZM,2020-10-17 00:18:44,clear sky
Avarua,-21.21,-159.78,77.0,65,34,11.41,CK,2020-10-17 00:18:44,scattered clouds
Bud,39.45,-86.18,50.0,39,40,3.36,US,2020-10-17 00:18:44,scattered clouds
Belle Fourche,44.67,-103.85,50.0,54,90,11.41,US,2020-10-17 00:15:18,overcast clouds
Moussoro,13.64,16.49,88.27,19,5,3.71,TD,2020-10-17 00:18:45,clear sky
Sao Filipe,14.9,-24.5,80.28,80,100,2.44,CV,2020-10-17 00:18:45,overcast clouds
Vanimo,-2.67,141.3,79.34,77,100,5.91,PG,2020-10-17 00:18:45,light rain
Puerto Ayora,-0.74,-90.35,70.0,92,100,5.01,EC,2020-10-17 00:18:45,overcast clouds
Storslett,69.77,21.02,36.66,85,100,1.79,NO,2020-10-17 00:18:45,light rain
Rawson,-43.3,-65.1,72.09,40,1,17.43,AR,2020-10-17 00:18:45,clear sky
Margate,51.38,1.39,51.01,66,93,7.99,GB,2020-10-17 00:18:45,overcast clouds
Upington,-28.45,21.26,73.4,15,54,3.36,ZA,2020-10-17 00:18:45,broken clouds
Namatanai,-3.67,152.43,85.08,64,100,6.08,PG,2020-10-17 00:18:46,overcast clouds
Mandalgovi,45.76,106.27,35.44,75,100,10.0,MN,2020-10-17 00:18:46,overcast clouds
Saint-Pierre,-21.34,55.48,71.6,60,48,6.93,RE,2020-10-17 00:18:46,scattered clouds
San Juan,-31.54,-68.54,76.21,35,25,3.83,AR,2020-10-17 00:18:46,scattered clouds
Albany,42.6,-73.97,48.0,89,100,5.19,US,2020-10-17 00:18:46,overcast clouds
Cascais,38.7,-9.42,57.99,70,43,6.35,PT,2020-10-17 00:17:37,scattered clouds
Saint-Alexandre,44.23,4.62,52.0,81,8,13.87,FR,2020-10-17 00:18:46,clear sky
Sendafa,9.15,39.03,60.8,67,75,2.84,ET,2020-10-17 00:18:47,broken clouds
Klaksvik,62.23,-6.59,44.6,81,92,10.29,FO,2020-10-17 00:18:47,overcast clouds
Illela,13.73,5.3,87.93,29,5,5.73,NG,2020-10-17 00:18:47,clear sky
Ormara,25.21,64.64,80.06,27,65,17.56,PK,2020-10-17 00:18:47,broken clouds
Sola,-13.88,167.55,79.36,83,2,15.3,VU,2020-10-17 00:18:47,clear sky
Saskylakh,71.92,114.08,4.14,93,90,3.42,RU,2020-10-17 00:18:47,overcast clouds
Vaini,-21.2,-175.2,77.0,83,75,17.22,TO,2020-10-17 00:18:47,broken clouds
Svetlogorsk,52.63,29.73,40.89,91,28,8.23,BY,2020-10-17 00:18:47,scattered clouds
Kagadi,0.96,30.8,61.56,97,59,2.08,UG,2020-10-17 00:18:47,light rain
Aksu,41.12,80.26,47.14,48,0,1.25,CN,2020-10-17 00:18:48,clear sky
Shubarshi,48.59,57.19,50.5,47,67,10.45,KZ,2020-10-17 00:18:48,broken clouds
Bonfim,3.08,-59.95,84.61,47,16,6.76,BR,2020-10-17 00:18:49,few clouds
Itoman,26.12,127.67,80.6,69,20,14.99,JP,2020-10-17 00:18:49,few clouds
Kloulklubed,7.04,134.26,84.2,79,75,4.7,PW,2020-10-17 00:18:49,broken clouds
Jauja,-11.78,-75.5,52.25,59,76,6.2,PE,2020-10-17 00:18:49,broken clouds
Saint-Augustin,51.23,-58.65,46.65,92,49,4.85,CA,2020-10-17 00:18:49,scattered clouds
Norman Wells,65.28,-126.83,21.2,73,90,16.11,CA,2020-10-17 00:18:49,light shower snow
Barrow,71.29,-156.79,17.6,72,1,25.28,US,2020-10-17 00:18:50,clear sky
Constitucion,-35.33,-72.42,52.27,92,3,0.63,CL,2020-10-17 00:18:50,clear sky
Tuatapere,-46.13,167.68,54.0,61,50,5.99,NZ,2020-10-17 00:18:50,scattered clouds
San Patricio,28.02,-97.52,62.6,82,90,13.87,US,2020-10-17 00:18:50,overcast clouds
Saint-Joseph,-21.37,55.62,71.6,60,32,6.93,RE,2020-10-17 00:13:55,scattered clouds
Fortuna,40.6,-124.16,70.0,59,1,10.29,US,2020-10-17 00:17:59,clear sky
Simao,22.79,100.97,59.52,89,100,2.64,CN,2020-10-17 00:18:50,overcast clouds
Pevek,69.7,170.31,36.37,82,37,11.65,RU,2020-10-17 00:18:50,scattered clouds
Georgetown,5.41,100.34,78.8,94,20,3.76,MY,2020-10-17 00:18:51,few clouds
Kutum,14.2,24.67,75.81,19,0,8.72,SD,2020-10-17 00:18:51,clear sky
Namibe,-15.2,12.15,70.48,74,95,7.63,AO,2020-10-17 00:18:51,light rain
Hasaki,35.73,140.83,54.0,93,75,11.41,JP,2020-10-17 00:18:51,light rain
Riyadh,24.69,46.72,66.2,34,0,3.36,SA,2020-10-17 00:17:33,clear sky
Phangnga,8.45,98.53,78.8,88,40,6.93,TH,2020-10-17 00:18:51,moderate rain
Tanout,14.97,8.89,88.21,18,0,8.1,NE,2020-10-17 00:18:51,clear sky
Khandyga,62.67,135.6,15.26,89,11,3.04,RU,2020-10-17 00:18:52,few clouds
Alyangula,-13.85,136.42,82.4,74,40,6.93,AU,2020-10-17 00:18:52,scattered clouds
Cessnock,-32.83,151.35,79.0,50,43,1.99,AU,2020-10-17 00:18:52,scattered clouds
Bilokurakyne,49.53,38.73,55.56,86,79,4.54,UA,2020-10-17 00:18:52,broken clouds
Chitral,35.85,71.79,55.9,35,0,1.45,PK,2020-10-17 00:18:52,clear sky
Constantine,36.37,6.61,44.6,87,0,2.24,DZ,2020-10-17 00:18:52,clear sky
Kasimov,54.94,41.4,35.15,92,10,5.99,RU,2020-10-17 00:18:52,clear sky
Yukhnov,54.74,35.23,38.37,82,44,3.31,RU,2020-10-17 00:18:53,scattered clouds
Hudson Bay,52.85,-102.38,25.02,82,0,4.79,CA,2020-10-17 00:18:53,clear sky
Quatre Cocos,-20.21,57.76,68.0,94,20,5.82,MU,2020-10-17 00:18:53,few clouds
Den Helder,52.96,4.76,50.0,87,90,2.24,NL,2020-10-17 00:18:53,overcast clouds
Mayya,61.73,130.28,14.0,92,75,4.47,RU,2020-10-17 00:18:53,light shower snow
Saint-Louis,16.33,-15.0,86.0,66,2,5.7,SN,2020-10-17 00:18:53,clear sky
Marawi,8.0,124.29,81.0,81,92,1.01,PH,2020-10-17 00:18:53,overcast clouds
Svolvaer,68.23,14.57,45.0,93,75,18.34,NO,2020-10-17 00:18:53,light intensity shower rain
Touros,-5.2,-35.46,77.0,83,20,9.17,BR,2020-10-17 00:17:32,few clouds
Saint George,37.1,-113.58,82.4,8,1,4.7,US,2020-10-17 00:18:54,clear sky
San Bartolome De Tirajana,27.92,-15.57,71.6,73,75,11.41,ES,2020-10-17 00:18:54,broken clouds
Atuona,-9.8,-139.03,78.49,75,2,17.76,PF,2020-10-17 00:18:54,clear sky
Meihekou,42.53,125.68,46.53,54,0,14.61,CN,2020-10-17 00:18:54,clear sky
Manga,11.66,-1.07,81.86,56,57,6.15,BF,2020-10-17 00:18:54,broken clouds
Bharuch,21.7,72.97,79.36,84,69,3.58,IN,2020-10-17 00:18:54,broken clouds
Urucara,-2.54,-57.76,83.88,50,35,1.43,BR,2020-10-17 00:18:54,scattered clouds
Codrington,-38.27,141.97,56.34,88,98,14.52,AU,2020-10-17 00:18:54,overcast clouds
Raudeberg,61.99,5.14,46.0,94,87,12.3,NO,2020-10-17 00:18:55,overcast clouds
Yulara,-25.24,130.99,80.6,34,0,16.11,AU,2020-10-17 00:18:55,clear sky
Hermanus,-34.42,19.23,59.0,76,50,5.79,ZA,2020-10-17 00:18:55,scattered clouds
Methven,-43.63,171.65,52.0,70,95,4.47,NZ,2020-10-17 00:18:55,overcast clouds
Pontal Do Parana,-25.65,-48.51,54.0,87,40,6.93,BR,2020-10-17 00:18:55,scattered clouds
Mataura,-46.19,168.86,54.0,61,48,5.99,NZ,2020-10-17 00:18:55,scattered clouds
Nuuk,64.18,-51.72,44.01,87,100,32.21,GL,2020-10-17 00:15:11,light snow
Avera,33.19,-82.53,66.2,72,1,5.82,US,2020-10-17 00:18:55,clear sky
Srednekolymsk,67.45,153.68,26.2,97,93,13.15,RU,2020-10-17 00:14:07,overcast clouds
Mahon,39.89,4.27,55.4,71,1,4.7,ES,2020-10-17 00:18:56,clear sky
Callaway,30.15,-85.57,75.2,64,1,11.41,US,2020-10-17 00:18:56,clear sky
Ilhabela,-23.78,-45.36,66.79,76,81,3.94,BR,2020-10-17 00:18:56,broken clouds
Ponta Do Sol,32.67,-17.1,66.2,72,20,5.82,PT,2020-10-17 00:18:56,few clouds
Wanning,18.8,110.4,78.15,85,100,21.68,CN,2020-10-17 00:18:56,moderate rain
Baykit,61.67,96.37,27.41,94,100,7.67,RU,2020-10-17 00:18:56,light snow
Tura,25.52,90.22,72.37,91,8,3.69,IN,2020-10-17 00:18:56,clear sky
Tautira,-17.73,-149.15,75.0,94,90,13.87,PF,2020-10-17 00:18:56,light rain
Isangel,-19.55,169.27,82.4,69,20,9.17,VU,2020-10-17 00:18:57,few clouds
Bubaque,11.28,-15.83,82.56,85,100,10.29,GW,2020-10-17 00:18:57,overcast clouds
Sitka,57.05,-135.33,51.8,66,75,8.05,US,2020-10-17 00:18:55,broken clouds
Zhigansk,66.77,123.37,17.92,92,93,5.41,RU,2020-10-17 00:18:57,overcast clouds
Sistranda,63.73,8.83,44.6,100,75,19.46,NO,2020-10-17 00:18:57,broken clouds
Bafra,41.57,35.91,57.2,87,40,4.7,TR,2020-10-17 00:18:57,fog
Tiksi,71.69,128.87,24.33,98,100,9.13,RU,2020-10-17 00:18:58,light snow
Guerrero Negro,27.98,-114.06,78.6,51,51,16.33,MX,2020-10-17 00:18:58,broken clouds
Cape Town,-33.93,18.42,57.0,93,30,4.7,ZA,2020-10-17 00:18:58,scattered clouds
Arcoverde,-8.42,-37.05,66.51,83,43,9.22,BR,2020-10-17 00:18:58,scattered clouds
Bengkulu,-3.8,102.27,76.12,85,65,3.11,ID,2020-10-17 00:18:58,broken clouds
Ampanihy,-24.7,44.75,66.6,78,81,14.5,MG,2020-10-17 00:18:58,broken clouds
Skibbereen,51.55,-9.27,46.4,81,20,8.05,IE,2020-10-17 00:18:58,few clouds
Magdiwang,12.49,122.51,83.35,70,53,1.36,PH,2020-10-17 00:18:58,broken clouds
Souillac,-20.52,57.52,68.0,94,20,5.82,MU,2020-10-17 00:18:59,few clouds
El Dorado,38.77,-120.52,86.0,21,0,5.44,US,2020-10-17 00:18:08,clear sky
Gat,31.61,34.76,72.0,92,0,3.49,IL,2020-10-17 00:18:00,clear sky
North Bay,46.32,-79.47,39.99,72,75,6.93,CA,2020-10-17 00:18:59,broken clouds
Dingle,11.0,122.67,81.14,78,62,2.91,PH,2020-10-17 00:18:59,broken clouds
Trelew,-43.25,-65.31,77.43,33,0,17.25,AR,2020-10-17 00:17:34,clear sky
Farafangana,-22.82,47.83,71.82,89,63,4.85,MG,2020-10-17 00:18:59,light rain
Alta Floresta,-9.88,-56.09,83.48,45,67,2.71,BR,2020-10-17 00:19:00,broken clouds
Trincomalee,8.57,81.23,79.75,78,90,17.72,LK,2020-10-17 00:19:00,overcast clouds
Port Elizabeth,-33.92,25.57,60.8,93,20,5.82,ZA,2020-10-17 00:16:50,few clouds
Buchanan,5.88,-10.05,77.32,89,96,5.95,LR,2020-10-17 00:19:00,overcast clouds
Laje,-10.18,-40.97,77.04,32,0,6.42,BR,2020-10-17 00:19:00,clear sky
Malindi,-3.22,40.12,77.68,82,5,14.32,KE,2020-10-17 00:19:00,clear sky
Luoyang,34.68,112.45,55.0,99,66,2.62,CN,2020-10-17 00:19:00,broken clouds
Cabo San Lucas,22.89,-109.91,88.0,58,5,8.05,MX,2020-10-17 00:19:01,clear sky
Santiago Del Estero,-27.8,-64.26,82.87,46,100,10.51,AR,2020-10-17 00:19:01,overcast clouds
Praya,14.92,-23.51,77.0,88,94,5.82,CV,2020-10-17 00:14:05,overcast clouds
Khatanga,71.97,102.5,-2.29,89,0,3.44,RU,2020-10-17 00:19:01,clear sky
Puerto Escondido,15.85,-97.07,82.65,75,96,4.52,MX,2020-10-17 00:19:01,overcast clouds
Churintzio,20.15,-102.07,68.43,54,26,5.32,MX,2020-10-17 00:19:01,scattered clouds
Erzin,36.96,36.2,73.0,74,8,2.46,TR,2020-10-17 00:19:01,clear sky
Lovozero,68.0,35.01,27.97,97,96,7.52,RU,2020-10-17 00:19:01,overcast clouds
Kholodnyy,62.72,147.95,20.07,92,100,4.54,RU,2020-10-17 00:19:01,overcast clouds
Akdepe,42.06,59.38,42.8,65,0,2.24,TM,2020-10-17 00:19:02,clear sky
Tahe,52.33,124.73,34.79,88,85,9.1,CN,2020-10-17 00:19:02,overcast clouds
Kuytun,54.34,101.5,28.38,92,97,5.95,RU,2020-10-17 00:19:02,overcast clouds
Saint-Francois,46.42,3.91,46.4,100,96,3.36,FR,2020-10-17 00:19:02,overcast clouds
Meulaboh,4.14,96.13,76.8,83,100,3.49,ID,2020-10-17 00:19:02,overcast clouds
La Victoria,10.22,-67.33,71.76,82,51,3.51,VE,2020-10-17 00:19:02,broken clouds
Chiang Kham,19.52,100.3,75.2,83,40,11.41,TH,2020-10-17 00:19:02,scattered clouds
Mar Del Plata,-38.0,-57.56,57.0,100,90,11.41,AR,2020-10-17 00:17:33,fog
Sabzevar,36.21,57.68,44.4,52,0,5.35,IR,2020-10-17 00:19:03,clear sky
Pacific Grove,36.62,-121.92,86.0,49,1,10.29,US,2020-10-17 00:19:03,clear sky
Bana,5.15,10.28,62.15,100,100,1.32,CM,2020-10-17 00:19:03,moderate rain
Xingcheng,40.62,120.72,56.26,36,0,12.35,CN,2020-10-17 00:19:03,clear sky
Shimoda,34.67,138.95,55.4,93,75,18.34,JP,2020-10-17 00:19:03,light rain
Canavieiras,-15.68,-38.95,73.45,86,1,3.18,BR,2020-10-17 00:19:03,clear sky
Ostrovnoy,68.05,39.51,32.25,92,84,11.63,RU,2020-10-17 00:19:03,broken clouds
Asau,46.43,26.4,52.0,98,100,2.53,RO,2020-10-17 00:19:04,overcast clouds
Kingman,35.19,-114.05,89.01,8,1,11.41,US,2020-10-17 00:19:04,clear sky
Tuktoyaktuk,69.45,-133.04,21.2,85,90,23.04,CA,2020-10-17 00:19:04,light snow
Bezhanitsy,56.98,29.89,32.38,95,8,2.42,RU,2020-10-17 00:19:04,clear sky
Hadejia,12.45,10.04,84.79,41,16,5.77,NG,2020-10-17 00:19:04,few clouds
Kozmodemyansk,56.34,46.57,35.6,86,40,6.71,RU,2020-10-17 00:19:04,scattered clouds
Ponnani,10.77,75.93,73.4,88,75,3.36,IN,2020-10-17 00:19:04,mist
Tilichiki,60.47,166.1,37.26,75,22,4.83,RU,2020-10-17 00:19:04,few clouds
East London,-33.02,27.91,66.02,78,34,19.28,ZA,2020-10-17 00:19:05,scattered clouds
Stanislav,46.57,32.15,65.17,89,81,8.7,UA,2020-10-17 00:19:05,broken clouds
Bridlington,54.08,-0.19,48.99,87,74,4.7,GB,2020-10-17 00:19:05,broken clouds
Leningradskiy,69.38,178.42,35.51,86,75,3.53,RU,2020-10-17 00:19:05,broken clouds
Carmen,18.63,-91.83,84.2,74,40,5.82,MX,2020-10-17 00:17:51,scattered clouds
Normandin,48.83,-72.53,42.8,93,90,8.05,CA,2020-10-17 00:19:05,overcast clouds
Russell,32.35,-85.2,69.8,82,1,6.93,US,2020-10-17 00:19:05,clear sky
Torbay,47.67,-52.73,48.2,100,90,2.24,CA,2020-10-17 00:19:06,fog
Vanavara,60.34,102.28,25.0,96,100,8.79,RU,2020-10-17 00:19:06,overcast clouds
Sisimiut,66.94,-53.67,41.07,87,100,13.53,GL,2020-10-17 00:19:06,moderate rain
Roald,62.58,6.13,46.4,87,99,8.05,NO,2020-10-17 00:19:06,overcast clouds
Uyar,55.81,94.32,37.33,85,100,12.19,RU,2020-10-17 00:19:06,overcast clouds
Xinzhi,36.5,111.7,52.07,41,0,1.5,CN,2020-10-17 00:19:06,clear sky
Dongsheng,39.82,109.98,38.39,64,0,8.72,CN,2020-10-17 00:19:07,clear sky
Castro,-24.79,-50.01,54.61,89,32,8.88,BR,2020-10-17 00:19:07,scattered clouds
Pangnirtung,66.15,-65.71,38.01,84,100,5.26,CA,2020-10-17 00:19:07,light rain
Kamloops,50.67,-120.32,50.0,87,75,2.24,CA,2020-10-17 00:19:07,broken clouds
Etchojoa,26.92,-109.63,95.0,43,0,11.99,MX,2020-10-17 00:19:07,clear sky
Chokurdakh,70.63,147.92,31.77,99,100,9.31,RU,2020-10-17 00:19:07,overcast clouds
Los Llanos De Aridane,28.66,-17.92,69.8,83,75,4.7,ES,2020-10-17 00:19:07,light rain
Fidenza,44.86,10.07,48.99,95,24,3.62,IT,2020-10-17 00:19:07,few clouds
Esperance,-33.87,121.9,55.4,100,51,3.36,AU,2020-10-17 00:19:08,broken clouds
Seminole,28.71,-81.21,81.0,69,20,6.93,US,2020-10-17 00:19:08,few clouds
Mount Gambier,-37.83,140.77,53.6,87,75,19.46,AU,2020-10-17 00:19:08,broken clouds
Vydrino,51.48,104.85,34.54,83,78,6.22,RU,2020-10-17 00:19:08,broken clouds
Zyryanka,65.75,150.85,28.94,98,100,13.51,RU,2020-10-17 00:19:08,overcast clouds
Kapaa,22.08,-159.32,86.0,66,1,12.75,US,2020-10-17 00:19:08,clear sky
Eydhafushi,5.1,73.07,82.31,73,14,14.76,MV,2020-10-17 00:19:08,few clouds
Vardo,70.37,31.11,37.58,75,100,9.69,NO,2020-10-17 00:18:05,overcast clouds
Hovd,48.01,91.64,32.04,79,0,2.71,MN,2020-10-17 00:16:59,clear sky
Eskil,38.4,33.41,59.04,42,0,2.06,TR,2020-10-17 00:19:09,clear sky
Naze,28.37,129.48,77.0,83,75,5.82,JP,2020-10-17 00:19:09,shower rain
Soyo,-6.13,12.37,76.89,84,98,8.81,AO,2020-10-17 00:19:09,overcast clouds
Manacapuru,-3.3,-60.62,84.2,74,17,1.63,BR,2020-10-17 00:19:09,few clouds
Luderitz,-26.65,15.16,67.78,42,0,11.92,NA,2020-10-17 00:19:09,clear sky
Tecalitlan,19.47,-103.3,80.6,78,75,13.87,MX,2020-10-17 00:19:09,broken clouds
Nioro,13.35,-15.75,78.33,85,69,4.68,GM,2020-10-17 00:19:10,broken clouds
Malakal,9.53,31.66,74.86,85,85,3.13,SS,2020-10-17 00:19:10,overcast clouds
Victoria,22.29,114.16,77.0,74,64,1.01,HK,2020-10-17 00:19:10,broken clouds
Petatlan,17.52,-101.27,91.4,59,75,5.82,MX,2020-10-17 00:19:10,broken clouds
Nouadhibou,20.93,-17.03,78.8,54,4,17.22,MR,2020-10-17 00:19:10,clear sky
Lamu,-2.27,40.9,78.8,78,1,8.05,KE,2020-10-17 00:15:01,clear sky
Prince Rupert,54.32,-130.32,51.8,71,40,6.93,CA,2020-10-17 00:15:03,scattered clouds
Tessalit,20.2,1.01,84.49,15,0,9.31,ML,2020-10-17 00:19:10,clear sky
Lubango,-14.92,13.49,62.19,77,91,2.37,AO,2020-10-17 00:19:10,light rain
Hilo,19.73,-155.09,87.8,55,40,14.99,US,2020-10-17 00:19:11,scattered clouds
Phibun Mangsahan,15.24,105.23,77.0,94,75,10.29,TH,2020-10-17 00:19:11,moderate rain
Saint-Philippe,-21.36,55.77,71.6,60,22,6.93,RE,2020-10-17 00:19:11,few clouds
Laredo,27.51,-99.51,66.2,77,90,12.75,US,2020-10-17 00:18:39,overcast clouds
Miracema Do Tocantins,-9.56,-48.4,84.49,34,2,2.62,BR,2020-10-17 00:19:11,clear sky
Airai,-8.93,125.41,74.44,44,26,2.39,TL,2020-10-17 00:19:11,scattered clouds
Mitsamiouli,-11.38,43.28,77.54,73,6,2.42,KM,2020-10-17 00:19:11,clear sky
Yamada,39.47,141.95,59.4,53,100,2.55,JP,2020-10-17 00:19:11,light rain
Coihaique,-45.58,-72.07,59.0,54,20,8.05,CL,2020-10-17 00:19:11,few clouds
Bambous Virieux,-20.34,57.76,68.0,94,20,5.82,MU,2020-10-17 00:19:12,few clouds
Bondo,3.81,23.69,66.13,96,88,1.32,CD,2020-10-17 00:19:12,overcast clouds
Te Anau,-45.42,167.72,49.96,63,89,2.24,NZ,2020-10-17 00:19:12,overcast clouds
Loralai,30.37,68.6,54.45,29,0,3.31,PK,2020-10-17 00:19:12,clear sky
Severo-Kurilsk,50.68,156.12,43.07,65,78,24.74,RU,2020-10-17 00:19:12,broken clouds
Lata,40.16,-8.33,54.0,81,77,4.7,PT,2020-10-17 00:19:12,broken clouds
Leh,34.17,77.58,34.74,58,0,2.24,IN,2020-10-17 00:19:12,clear sky
Hastings,50.86,0.57,48.99,87,95,7.56,GB,2020-10-17 00:19:12,overcast clouds
Upernavik,72.79,-56.15,40.3,71,100,8.23,GL,2020-10-17 00:19:13,overcast clouds
Buraydah,26.33,43.98,66.2,37,0,3.36,SA,2020-10-17 00:19:13,clear sky
Yelanskiy,56.84,62.5,46.85,86,97,6.6,RU,2020-10-17 00:19:13,light rain
Matay,28.42,30.78,68.97,67,0,10.92,EG,2020-10-17 00:19:13,clear sky
Inta,66.03,60.17,26.8,98,100,16.11,RU,2020-10-17 00:19:13,light snow
Merauke,-8.47,140.33,83.41,59,92,10.56,ID,2020-10-17 00:19:13,overcast clouds
Port Lincoln,-34.73,135.87,55.11,67,100,14.09,AU,2020-10-17 00:19:13,overcast clouds
Fort-Shevchenko,44.51,50.26,60.26,76,0,12.62,KZ,2020-10-17 00:19:13,clear sky
Taoudenni,22.68,-3.98,86.02,18,0,8.72,ML,2020-10-17 00:19:14,clear sky
Yelan-Koleno,51.15,41.23,47.26,87,86,5.39,RU,2020-10-17 00:19:14,overcast clouds
Anchorage,61.22,-149.9,36.0,47,1,4.7,US,2020-10-17 00:18:20,snow
Zalantun,48.0,122.72,41.85,66,100,19.57,CN,2020-10-17 00:19:14,overcast clouds
Ndele,8.41,20.65,70.75,89,60,2.64,CF,2020-10-17 00:19:14,broken clouds
Salalah,17.02,54.09,73.4,56,0,3.36,OM,2020-10-17 00:14:15,clear sky
Gidam,18.98,81.4,71.74,94,44,1.16,IN,2020-10-17 00:19:14,scattered clouds
Westport,41.14,-73.36,51.01,98,100,7.52,US,2020-10-17 00:19:14,overcast clouds
Berlevag,70.86,29.09,35.8,80,100,6.38,NO,2020-10-17 00:19:15,overcast clouds
Kieta,-6.22,155.63,87.1,55,70,1.99,PG,2020-10-17 00:19:15,broken clouds
Castrillon,43.4,-6.79,51.8,87,82,5.82,ES,2020-10-17 00:19:15,broken clouds
Navrongo,10.9,-1.09,82.33,60,43,4.03,GH,2020-10-17 00:19:15,scattered clouds
Lagoa,39.05,-27.98,63.77,62,75,7.85,PT,2020-10-17 00:19:15,broken clouds
Kem,64.96,34.58,33.37,92,83,7.31,RU,2020-10-17 00:19:15,broken clouds
Khorixas,-20.37,14.97,63.32,61,49,1.28,NA,2020-10-17 00:19:15,scattered clouds
Katherine,-14.47,132.27,86.0,55,45,8.05,AU,2020-10-17 00:19:15,scattered clouds
Puerto Suarez,-18.95,-57.8,83.01,54,99,2.66,BO,2020-10-17 00:19:15,overcast clouds
Mozarlandia,-14.74,-50.57,84.79,47,71,8.23,BR,2020-10-17 00:19:16,broken clouds
Faya,18.39,42.45,59.0,26,0,3.74,SA,2020-10-17 00:19:16,clear sky
Rio Grande,-32.03,-52.1,61.27,85,32,15.79,BR,2020-10-17 00:14:19,scattered clouds
Dikson,73.51,80.55,20.86,95,67,13.56,RU,2020-10-17 00:19:16,broken clouds
Dubbo,-32.25,148.62,80.6,30,55,21.92,AU,2020-10-17 00:16:24,broken clouds
Schruns,47.07,9.95,44.01,100,100,0.58,AT,2020-10-17 00:19:16,overcast clouds
Mecca,21.43,39.83,79.16,17,0,4.9,SA,2020-10-17 00:16:25,clear sky
Karpathos,35.51,27.21,73.4,94,3,6.93,GR,2020-10-17 00:19:16,clear sky
Forio,40.73,13.86,57.2,82,90,5.82,IT,2020-10-17 00:19:16,overcast clouds
Ahuimanu,21.44,-157.84,84.2,66,90,10.29,US,2020-10-17 00:19:16,overcast clouds
Kalat,29.02,66.59,46.17,39,0,3.89,PK,2020-10-17 00:19:17,clear sky
Auki,-8.77,160.7,86.54,66,4,2.98,SB,2020-10-17 00:19:17,light rain
Shetpe,44.17,52.12,52.23,40,0,6.89,KZ,2020-10-17 00:19:17,clear sky
Urucui,-7.23,-44.56,83.34,45,24,2.3,BR,2020-10-17 00:19:17,few clouds
Shamary,57.34,58.22,37.45,94,96,5.55,RU,2020-10-17 00:19:17,moderate rain
Banjar,-8.19,114.97,82.4,74,20,3.36,ID,2020-10-17 00:19:17,few clouds
Christchurch,-43.53,172.63,55.99,58,76,8.05,NZ,2020-10-17 00:16:56,broken clouds
Portland,45.52,-122.68,68.0,52,75,2.39,US,2020-10-17 00:14:26,broken clouds
Broken Hill,-31.95,141.43,64.4,82,90,9.17,AU,2020-10-17 00:19:17,light rain
Ulaangom,49.98,92.07,29.26,94,0,1.52,MN,2020-10-17 00:19:18,clear sky
Longyearbyen,78.22,15.64,28.4,58,40,18.34,SJ,2020-10-17 00:19:18,scattered clouds
Moerai,-22.43,-151.33,73.63,83,1,14.18,PF,2020-10-17 00:19:18,clear sky
Puerto Leguizamo,-0.19,-74.78,74.32,95,75,2.57,CO,2020-10-17 00:15:55,broken clouds
Karibib,-21.93,15.83,67.75,44,43,2.42,NA,2020-10-17 00:19:18,scattered clouds
Conde,-7.26,-34.91,77.0,88,20,5.82,BR,2020-10-17 00:15:20,few clouds
Necochea,-38.55,-58.74,59.0,89,0,1.99,AR,2020-10-17 00:19:18,clear sky
Benghazi,32.12,20.07,80.76,39,31,14.36,LY,2020-10-17 00:19:18,scattered clouds
Port Hope,43.94,-82.71,44.6,65,80,9.17,US,2020-10-17 00:15:03,broken clouds
Puebla,18.83,-98.0,68.0,45,40,14.99,MX,2020-10-17 00:19:19,scattered clouds
Pontianak,-0.03,109.33,78.98,86,100,3.11,ID,2020-10-17 00:19:19,overcast clouds
Marsabit,2.33,37.99,66.45,71,45,23.8,KE,2020-10-17 00:19:19,scattered clouds
Richards Bay,-28.78,32.04,67.8,84,81,3.51,ZA,2020-10-17 00:19:19,broken clouds
Kaitangata,-46.28,169.85,50.0,64,80,14.0,NZ,2020-10-17 00:19:19,broken clouds
Koumac,-20.57,164.28,75.6,69,8,10.8,NC,2020-10-17 00:19:19,clear sky
San Rafael,-34.62,-68.33,76.57,35,20,5.14,AR,2020-10-17 00:14:47,light rain
Egvekinot,66.32,-179.17,33.98,99,84,10.65,RU,2020-10-17 00:19:20,light rain
Iberia,29.95,-91.75,64.4,72,75,9.17,US,2020-10-17 00:19:20,broken clouds
Donskoye,45.46,41.97,55.4,71,1,4.47,RU,2020-10-17 00:19:20,clear sky
La Ronge,55.1,-105.28,24.8,62,90,12.75,CA,2020-10-17 00:19:20,overcast clouds
Didsbury,53.42,-2.23,48.99,81,90,4.7,GB,2020-10-17 00:19:20,overcast clouds
Brus Laguna,15.75,-84.48,73.72,96,100,3.33,HN,2020-10-17 00:19:20,overcast clouds
Puerto Quijarro,-17.78,-57.77,82.83,60,19,3.02,BO,2020-10-17 00:19:20,few clouds
Kargopol,61.51,38.95,31.69,98,46,6.6,RU,2020-10-17 00:19:21,scattered clouds
Hambantota,6.12,81.12,78.17,79,38,17.45,LK,2020-10-17 00:19:21,scattered clouds
Saldanha,-33.01,17.94,59.0,87,0,6.93,ZA,2020-10-17 00:19:21,clear sky
Kavieng,-2.57,150.8,84.13,69,97,10.94,PG,2020-10-17 00:19:21,overcast clouds
Utmanzai,34.19,71.76,64.4,59,0,4.7,PK,2020-10-17 00:19:21,haze
Sao Joao Da Barra,-21.64,-41.05,70.48,79,100,8.16,BR,2020-10-17 00:19:21,overcast clouds
Vao,-22.67,167.48,69.06,75,2,16.46,NC,2020-10-17 00:19:21,clear sky
Pisco,-13.7,-76.22,64.4,82,4,19.46,PE,2020-10-17 00:19:21,clear sky
Byron Bay,-28.65,153.62,77.0,60,70,4.7,AU,2020-10-17 00:19:22,broken clouds
Cayenne,4.93,-52.33,80.6,78,8,4.7,GF,2020-10-17 00:15:11,clear sky
Ulkan,57.24,107.32,27.18,93,100,9.28,RU,2020-10-17 00:19:22,overcast clouds
Roebourne,-20.78,117.13,76.33,42,0,10.56,AU,2020-10-17 00:19:22,light rain
Mehamn,71.04,27.85,35.67,80,100,8.14,NO,2020-10-17 00:19:22,overcast clouds
Port Blair,11.67,92.75,80.06,82,94,7.76,IN,2020-10-17 00:19:22,light rain
Muros,42.78,-9.06,50.0,91,100,1.01,ES,2020-10-17 00:19:22,overcast clouds
Krasnoselkup,65.7,82.47,29.53,98,100,16.62,RU,2020-10-17 00:19:22,overcast clouds
Fort Nelson,58.81,-122.7,24.8,68,75,6.93,CA,2020-10-17 00:19:23,smoke
Bireun,5.2,96.7,79.16,70,100,4.45,ID,2020-10-17 00:19:23,overcast clouds
Qasigiannguit,68.82,-51.19,48.2,57,97,14.99,GL,2020-10-17 00:19:23,light rain
Lisakovsk,52.54,62.49,53.08,45,100,14.29,KZ,2020-10-17 00:19:23,overcast clouds
Hamilton,39.18,-84.53,48.99,56,1,5.79,US,2020-10-17 00:18:50,clear sky
Puerto Madero,14.72,-92.42,78.8,100,40,1.74,MX,2020-10-17 00:19:23,scattered clouds
La Serena,-29.91,-71.25,55.4,82,20,8.05,CL,2020-10-17 00:19:23,few clouds
Weligama,5.97,80.42,77.81,84,37,11.27,LK,2020-10-17 00:19:23,scattered clouds
Olavarria,-36.89,-60.32,60.85,88,0,9.01,AR,2020-10-17 00:19:24,clear sky
Kaeo,-35.1,173.78,66.0,61,8,8.99,NZ,2020-10-17 00:19:24,clear sky
Rio Gallegos,-51.62,-69.22,50.0,53,40,11.41,AR,2020-10-17 00:19:24,scattered clouds
Paamiut,61.99,-49.67,42.24,76,93,38.99,GL,2020-10-17 00:19:24,overcast clouds
Sinnamary,5.38,-52.95,79.86,76,13,12.48,GF,2020-10-17 00:19:24,few clouds
Haradok,55.46,29.98,33.98,93,22,4.74,BY,2020-10-17 00:15:07,few clouds
Mongo,12.18,18.69,79.5,60,13,5.37,TD,2020-10-17 00:19:24,few clouds
Camacha,33.08,-16.33,64.4,72,20,3.36,PT,2020-10-17 00:19:24,few clouds
Guantanamo,20.14,-75.21,86.0,74,75,16.11,CU,2020-10-17 00:19:24,broken clouds
Port-Gentil,-0.72,8.78,78.8,83,75,8.05,GA,2020-10-17 00:19:25,broken clouds
Luganville,-15.53,167.17,82.4,74,40,8.05,VU,2020-10-17 00:19:25,scattered clouds
Belyy Yar,53.6,91.39,28.4,92,78,6.71,RU,2020-10-17 00:19:25,broken clouds
Ugoofaaru,5.67,73.0,82.08,73,16,13.87,MV,2020-10-17 00:19:25,few clouds
Sangar,63.92,127.47,19.18,96,100,3.31,RU,2020-10-17 00:19:25,light snow
Yar-Sale,66.83,70.83,30.6,98,100,25.17,RU,2020-10-17 00:19:25,overcast clouds
Atlantic Beach,30.33,-81.4,77.0,78,1,4.7,US,2020-10-17 00:15:00,clear sky
Caxito,-8.58,13.66,77.0,83,75,5.82,AO,2020-10-17 00:19:26,broken clouds
Aswan,24.09,32.91,80.83,28,0,8.61,EG,2020-10-17 00:19:26,clear sky
Sakakah,29.97,40.21,71.6,31,0,2.75,SA,2020-10-17 00:19:26,clear sky
Barahona,18.21,-71.1,82.11,77,42,11.01,DO,2020-10-17 00:19:26,light rain
Maningrida,-12.07,134.27,85.06,59,33,7.29,AU,2020-10-17 00:19:26,scattered clouds
Port Antonio,18.18,-76.46,86.0,74,20,11.41,JM,2020-10-17 00:19:26,few clouds
Onega,63.91,38.14,33.94,89,33,6.02,RU,2020-10-17 00:19:26,scattered clouds
Dortyol,36.86,36.23,73.0,74,17,1.45,TR,2020-10-17 00:19:27,few clouds
Abu Kamal,34.45,40.92,64.49,40,0,3.94,SY,2020-10-17 00:19:27,clear sky
Alugan,12.22,125.48,83.21,77,93,5.41,PH,2020-10-17 00:19:27,overcast clouds
Matagami,49.75,-77.63,28.4,92,1,2.24,CA,2020-10-17 00:19:27,clear sky
Kharabali,47.42,47.26,55.0,99,39,5.48,RU,2020-10-17 00:19:27,scattered clouds
Letlhakane,-21.42,25.58,74.55,23,36,11.56,BW,2020-10-17 00:19:27,scattered clouds
Yarkovo,57.4,67.08,44.11,90,87,4.54,RU,2020-10-17 00:19:28,overcast clouds
Sibolga,1.74,98.78,76.57,76,68,3.06,ID,2020-10-17 00:19:28,broken clouds
Katsuura,35.13,140.3,55.4,93,75,14.99,JP,2020-10-17 00:19:28,moderate rain
Qaqortoq,60.72,-46.03,39.2,82,97,2.24,GL,2020-10-17 00:19:28,overcast clouds
Cap-Aux-Meules,47.38,-61.86,55.4,76,5,12.75,CA,2020-10-17 00:19:28,clear sky
Pemba,-12.97,40.52,77.0,83,40,6.93,MZ,2020-10-17 00:19:28,scattered clouds
Odweyne,9.41,45.06,73.17,43,0,0.58,SO,2020-10-17 00:19:29,clear sky
Yumen,40.28,97.2,42.42,50,55,11.61,CN,2020-10-17 00:19:29,broken clouds
Rafaela,-31.25,-61.49,73.99,35,0,3.0,AR,2020-10-17 00:19:29,clear sky
Marsh Harbour,26.54,-77.06,81.18,77,100,11.21,BS,2020-10-17 00:19:29,overcast clouds
Port Macquarie,-31.43,152.92,80.01,52,45,3.0,AU,2020-10-17 00:19:29,scattered clouds
Tocopilla,-22.09,-70.2,65.93,53,39,8.59,CL,2020-10-17 00:16:06,scattered clouds
Tsabong,-26.02,22.4,80.06,17,0,11.1,BW,2020-10-17 00:19:29,clear sky
Bowling Green,36.99,-86.44,55.4,30,1,3.36,US,2020-10-17 00:15:08,clear sky
Luis Gil Perez,17.87,-93.05,82.4,83,40,8.05,MX,2020-10-17 00:19:30,scattered clouds
Maceio,-9.67,-35.74,73.4,88,29,6.93,BR,2020-10-17 00:18:56,scattered clouds
Phan Thiet,10.93,108.1,76.26,90,100,8.55,VN,2020-10-17 00:19:30,overcast clouds
Lodwar,3.12,35.6,85.24,46,33,12.08,KE,2020-10-17 00:19:30,scattered clouds
Half Moon Bay,37.46,-122.43,93.2,18,1,13.87,US,2020-10-17 00:19:30,clear sky
Sol-Iletsk,51.16,54.99,55.87,39,97,12.95,RU,2020-10-17 00:19:30,overcast clouds
Mayo,38.89,-76.51,55.0,93,90,3.36,US,2020-10-17 00:19:30,overcast clouds
Moroto,2.53,34.67,71.96,63,74,0.58,UG,2020-10-17 00:19:30,light rain
Brae,60.4,-1.35,42.8,93,100,9.17,GB,2020-10-17 00:19:30,overcast clouds
Ancud,-41.87,-73.82,59.0,58,54,10.29,CL,2020-10-17 00:19:31,broken clouds
Dzerzhinsk,56.24,43.46,32.0,86,20,8.95,RU,2020-10-17 00:19:31,few clouds
Mancio Lima,-7.61,-72.9,76.44,84,100,2.28,BR,2020-10-17 00:19:31,overcast clouds
Porkhov,57.77,29.56,35.6,93,96,2.24,RU,2020-10-17 00:19:31,overcast clouds
Chengam,12.3,78.8,73.02,84,67,4.09,IN,2020-10-17 00:19:31,broken clouds
Luena,-11.78,19.92,63.34,92,3,3.47,AO,2020-10-17 00:19:31,clear sky
Rumford,44.55,-70.55,52.0,98,100,1.95,US,2020-10-17 00:19:31,light rain
Batagay,67.63,134.63,12.38,90,100,2.73,RU,2020-10-17 00:19:31,overcast clouds
Jeremoabo,-10.07,-38.48,67.55,86,0,7.56,BR,2020-10-17 00:19:31,clear sky
Walvis Bay,-22.96,14.51,57.0,93,1,5.82,NA,2020-10-17 00:19:32,clear sky
Valparaiso,-33.04,-71.63,55.4,93,90,4.7,CL,2020-10-17 00:19:32,mist
Steinbach,50.17,8.57,46.4,75,68,5.82,DE,2020-10-17 00:19:32,broken clouds
Kulhudhuffushi,6.62,73.07,81.97,72,63,14.52,MV,2020-10-17 00:19:32,broken clouds
Derzhavinsk,51.1,66.32,52.47,44,100,14.99,KZ,2020-10-17 00:19:32,overcast clouds
Rundu,-17.93,19.77,69.89,23,3,7.58,NA,2020-10-17 00:19:32,clear sky
Vestmannaeyjar,63.44,-20.27,44.89,72,8,8.16,IS,2020-10-17 00:18:44,clear sky
Matamoros,25.53,-103.25,86.0,25,5,12.68,MX,2020-10-17 00:19:33,clear sky
Shingu,33.73,135.98,57.2,100,75,3.36,JP,2020-10-17 00:19:33,light rain
Ejido,8.55,-71.24,67.39,64,48,5.75,VE,2020-10-17 00:19:33,light rain
Ulety,51.36,112.48,27.93,86,58,11.23,RU,2020-10-17 00:19:33,broken clouds
Bouna,9.27,-3.0,75.02,84,95,4.34,CI,2020-10-17 00:16:06,overcast clouds
Bac Lieu,9.29,105.72,78.82,86,100,8.05,VN,2020-10-17 00:19:05,overcast clouds
Mount Isa,-20.73,139.5,87.8,16,0,11.41,AU,2020-10-17 00:19:34,clear sky
Bagdarin,54.43,113.6,20.64,81,99,3.04,RU,2020-10-17 00:19:34,overcast clouds
Douglas,41.3,-96.17,54.0,30,75,4.7,US,2020-10-17 00:17:25,broken clouds
Muisne,0.6,-80.03,74.97,86,64,9.71,EC,2020-10-17 00:19:34,broken clouds
Northam,51.03,-4.22,48.99,81,17,3.0,GB,2020-10-17 00:19:34,few clouds
Grindavik,63.84,-22.43,41.0,100,75,6.93,IS,2020-10-17 00:19:34,broken clouds
Port-Cartier,50.03,-66.87,46.4,100,90,5.82,CA,2020-10-17 00:19:34,overcast clouds
Rondonopolis,-16.47,-54.64,80.96,56,66,0.58,BR,2020-10-17 00:19:34,broken clouds
Chapais,49.78,-74.85,37.4,86,90,3.36,CA,2020-10-17 00:19:34,light rain
Marshall,34.38,-86.33,57.99,46,1,4.7,US,2020-10-17 00:19:35,clear sky
Polyarnyy,69.2,33.45,26.6,100,40,2.24,RU,2020-10-17 00:19:35,scattered clouds
The Valley,18.22,-63.06,82.4,94,40,14.99,AI,2020-10-17 00:14:46,scattered clouds
Pasni,25.26,63.47,77.4,30,37,27.83,PK,2020-10-17 00:19:35,scattered clouds
Kroya,-7.63,109.25,64.99,79,97,4.99,ID,2020-10-17 00:19:35,overcast clouds
Springfield,37.22,-93.3,53.6,32,1,4.7,US,2020-10-17 00:15:06,clear sky
Port Hardy,50.7,-127.42,53.6,76,75,11.41,CA,2020-10-17 00:15:03,broken clouds
Nago,26.59,127.98,80.01,78,1,6.93,JP,2020-10-17 00:19:36,clear sky
Broome,42.25,-75.83,42.01,80,20,4.7,US,2020-10-17 00:19:36,few clouds
Mentakab,3.49,102.35,76.53,85,96,1.19,MY,2020-10-17 00:19:36,overcast clouds
Krasnoarmeysk,51.02,45.7,53.01,73,98,7.0,RU,2020-10-17 00:19:36,overcast clouds
Ondjiva,-17.07,15.73,76.91,39,43,6.87,AO,2020-10-17 00:19:36,scattered clouds
Kushima,31.46,131.23,60.8,82,75,5.82,JP,2020-10-17 00:19:36,mist
Adrar,20.5,-10.07,87.82,16,0,8.99,MR,2020-10-17 00:19:37,clear sky
Limulunga,-15.1,23.14,74.28,30,0,9.95,ZM,2020-10-17 00:19:37,clear sky
Fairbanks,64.84,-147.72,21.2,48,1,6.93,US,2020-10-17 00:15:53,clear sky
Nagaur,27.2,73.73,77.92,18,0,9.15,IN,2020-10-17 00:19:37,clear sky
Nacogdoches,31.6,-94.63,68.0,30,1,5.82,US,2020-10-17 00:19:37,clear sky
Lompoc,34.64,-120.46,80.01,34,1,11.41,US,2020-10-17 00:19:37,clear sky
Psedakh,43.47,44.57,44.6,87,0,6.71,RU,2020-10-17 00:19:38,clear sky
Sarangani,5.4,125.46,82.85,72,94,8.43,PH,2020-10-17 00:19:38,moderate rain
Pangkalanbuun,-2.68,111.62,76.03,93,100,1.59,ID,2020-10-17 00:19:38,moderate rain
Lishan,31.86,113.3,56.98,67,41,3.62,CN,2020-10-17 00:19:38,scattered clouds
Bilma,18.69,12.92,82.56,19,0,3.71,NE,2020-10-17 00:19:39,clear sky
Libourne,44.92,-0.25,44.6,93,90,3.22,FR,2020-10-17 00:19:39,overcast clouds
Naranjal,-2.67,-79.62,82.4,65,20,12.75,EC,2020-10-17 00:15:12,few clouds
Manyana,-23.4,21.72,74.61,23,28,6.67,BW,2020-10-17 00:19:39,scattered clouds
Dwarka,22.24,68.97,86.43,68,98,6.8,IN,2020-10-17 00:19:39,light rain
Okha,53.57,142.95,40.84,67,60,17.43,RU,2020-10-17 00:19:39,broken clouds
Mayumba,-3.43,10.66,76.51,84,80,5.28,GA,2020-10-17 00:19:39,broken clouds
Rolla,37.95,-91.77,48.0,45,1,4.07,US,2020-10-17 00:19:39,clear sky
Somoto,13.48,-86.58,70.0,91,95,4.34,NI,2020-10-17 00:19:40,overcast clouds
Chimbote,-9.09,-78.58,62.83,86,15,5.97,PE,2020-10-17 00:19:40,few clouds
Nassau,40.75,-73.58,53.01,95,100,1.01,US,2020-10-17 00:19:18,light rain
Mchinji,-13.8,32.88,67.77,56,55,4.63,MW,2020-10-17 00:19:40,broken clouds
Altagracia De Orituco,9.86,-66.38,73.35,93,100,2.59,VE,2020-10-17 00:19:40,overcast clouds
Nyurba,63.28,118.33,18.82,93,34,8.39,RU,2020-10-17 00:19:40,scattered clouds
Karratha,-20.74,116.85,74.32,48,0,12.37,AU,2020-10-17 00:19:40,clear sky
Planaltina,-15.45,-47.61,82.4,45,75,4.7,BR,2020-10-17 00:19:41,broken clouds
Umm Kaddadah,13.6,26.69,85.33,14,3,10.83,SD,2020-10-17 00:19:41,clear sky
Munster,51.96,7.63,46.99,93,97,1.12,DE,2020-10-17 00:19:41,overcast clouds
Balkanabat,39.51,54.37,56.71,34,0,4.47,TM,2020-10-17 00:19:41,clear sky
Kirovskiy,45.09,133.51,42.33,71,0,7.25,RU,2020-10-17 00:19:41,clear sky
Boguchany,58.38,97.45,28.27,94,100,8.41,RU,2020-10-17 00:19:41,overcast clouds
Zhezkazgan,47.8,67.71,46.67,53,7,3.09,KZ,2020-10-17 00:19:41,clear sky
Ypsonas,34.69,32.96,68.0,77,67,3.36,CY,2020-10-17 00:17:37,broken clouds
Tabuny,52.78,78.79,46.92,53,100,11.27,RU,2020-10-17 00:19:42,overcast clouds
Banda Aceh,5.56,95.32,81.3,70,100,12.93,ID,2020-10-17 00:19:42,overcast clouds
Karasburg,-28.02,18.75,69.87,23,38,8.46,NA,2020-10-17 00:19:42,scattered clouds
Kibondo,-3.59,30.72,65.3,76,53,0.96,TZ,2020-10-17 00:19:42,broken clouds
Billings,45.78,-108.5,50.0,76,90,8.05,US,2020-10-17 00:18:41,overcast clouds
Lorain,41.33,-82.15,46.99,65,1,7.74,US,2020-10-17 00:19:42,clear sky
Madras,13.09,80.28,78.8,94,75,2.24,IN,2020-10-17 00:19:42,heavy intensity rain
Porbandar,21.64,69.61,83.26,74,100,9.01,IN,2020-10-17 00:19:42,overcast clouds
Nemuro,43.32,145.57,53.6,58,40,3.36,JP,2020-10-17 00:19:43,scattered clouds
Sambava,-14.27,50.17,69.91,86,3,8.95,MG,2020-10-17 00:19:43,clear sky
Innisfail,-17.53,146.03,77.18,66,8,9.19,AU,2020-10-17 00:19:43,clear sky
Uruzgan,32.83,66.0,35.64,78,0,1.81,AF,2020-10-17 00:19:43,clear sky
Chitrakonda,18.12,82.08,71.15,92,8,1.77,IN,2020-10-17 00:19:43,clear sky
Husavik,66.04,-17.34,41.0,86,90,6.93,IS,2020-10-17 00:19:43,overcast clouds
Huarmey,-10.07,-78.15,64.2,80,21,7.54,PE,2020-10-17 00:19:43,few clouds
Mattawa,46.74,-119.9,71.01,46,1,12.75,US,2020-10-17 00:19:43,clear sky
Alberton,46.82,-64.07,56.32,69,11,15.12,CA,2020-10-17 00:19:43,few clouds
Huancavelica,-12.77,-74.98,42.76,81,86,5.64,PE,2020-10-17 00:19:44,light rain
Santa Quiteria,-4.33,-40.16,75.83,67,48,5.32,BR,2020-10-17 00:15:58,scattered clouds
Boysun,38.21,67.2,46.72,53,1,1.52,UZ,2020-10-17 00:19:44,clear sky
Plettenberg Bay,-34.05,23.37,66.31,57,30,5.48,ZA,2020-10-17 00:19:44,scattered clouds
Mahina,-17.51,-149.49,75.0,94,90,13.87,PF,2020-10-17 00:19:44,light rain
Yalvac,38.3,31.18,55.13,40,90,0.72,TR,2020-10-17 00:19:44,overcast clouds
Annan,54.99,-3.26,46.0,100,98,2.24,GB,2020-10-17 00:19:44,overcast clouds
Indi,17.17,75.97,70.93,86,77,7.2,IN,2020-10-17 00:19:44,broken clouds
El Rosario,24.26,-107.18,88.0,81,1,4.0,MX,2020-10-17 00:19:45,clear sky
Santa Cruz,-17.8,-63.17,77.0,78,41,4.7,BO,2020-10-17 00:17:19,scattered clouds
Dunedin,-45.87,170.5,46.99,67,90,17.0,NZ,2020-10-17 00:16:16,overcast clouds
Listvyagi,53.68,86.95,40.95,82,89,9.53,RU,2020-10-17 00:19:45,overcast clouds
San Matias,-16.37,-58.4,83.12,58,46,2.71,BO,2020-10-17 00:19:45,scattered clouds
Mackay,-21.15,149.2,79.0,64,90,10.29,AU,2020-10-17 00:19:45,overcast clouds
Ketchikan,55.34,-131.65,50.0,66,40,12.75,US,2020-10-17 00:19:45,scattered clouds
Omsukchan,62.53,155.8,23.47,81,95,5.21,RU,2020-10-17 00:19:46,overcast clouds
Linxia,35.6,103.21,40.8,69,7,2.15,CN,2020-10-17 00:19:46,clear sky
Pitkyaranta,61.57,31.48,35.56,85,28,4.72,RU,2020-10-17 00:19:46,scattered clouds
Kabalo,-6.05,26.92,69.96,94,10,4.29,CD,2020-10-17 00:19:46,clear sky
Waipawa,-41.41,175.52,51.8,87,100,20.8,NZ,2020-10-17 00:17:15,overcast clouds
Coquimbo,-29.95,-71.34,55.4,82,20,8.05,CL,2020-10-17 00:19:46,few clouds
Abnub,27.27,31.15,73.4,64,0,13.87,EG,2020-10-17 00:19:46,clear sky
Nhulunbuy,-12.23,136.77,84.2,62,75,11.41,AU,2020-10-17 00:19:46,broken clouds
Feijo,-8.16,-70.35,77.43,76,82,0.94,BR,2020-10-17 00:19:47,light rain
Sharjah,25.36,55.4,80.6,39,0,3.36,AE,2020-10-17 00:19:47,clear sky
Antofagasta,-23.65,-70.4,59.0,82,75,13.87,CL,2020-10-17 00:17:04,broken clouds
Itapirapua,-15.82,-50.61,78.48,68,73,6.44,BR,2020-10-17 00:19:47,broken clouds
Lahaina,20.88,-156.68,91.4,58,40,16.11,US,2020-10-17 00:19:47,scattered clouds
Toca,5.56,-73.18,48.85,96,97,3.78,CO,2020-10-17 00:19:47,overcast clouds
Clyde River,70.47,-68.59,33.8,100,90,12.75,CA,2020-10-17 00:19:47,mist
Nome,64.5,-165.41,39.2,80,90,32.21,US,2020-10-17 00:19:47,haze
Varna,43.22,27.92,64.0,87,8,3.36,BG,2020-10-17 00:19:48,clear sky
Vicuna,-30.03,-70.71,69.01,27,0,0.83,CL,2020-10-17 00:19:48,clear sky
Henties Bay,-22.12,14.28,57.0,94,75,3.91,NA,2020-10-17 00:19:48,broken clouds
College,64.86,-147.8,23.0,49,40,11.41,US,2020-10-17 00:19:48,scattered clouds
Dieppe,49.75,1.17,42.01,93,20,5.82,FR,2020-10-17 00:19:48,few clouds
Penzance,50.12,-5.54,52.0,100,1,9.17,GB,2020-10-17 00:19:48,clear sky
Inirida,3.87,-67.92,76.53,89,82,1.03,CO,2020-10-17 00:19:48,broken clouds
Cotonou,6.37,2.42,77.0,88,20,4.7,BJ,2020-10-17 00:19:48,few clouds
Hirara,24.8,125.28,78.8,78,40,9.17,JP,2020-10-17 00:19:48,scattered clouds
Mangai,-4.05,19.53,70.84,95,100,1.54,CD,2020-10-17 00:19:49,light rain
Tabuk,17.42,121.44,76.17,88,96,3.2,PH,2020-10-17 00:19:49,overcast clouds
Camocim,-2.9,-40.84,77.14,83,32,9.98,BR,2020-10-17 00:19:49,scattered clouds
Jiazi,22.88,116.07,74.5,78,61,19.6,CN,2020-10-17 00:19:49,broken clouds
Manicore,-5.81,-61.3,77.72,77,44,1.59,BR,2020-10-17 00:19:49,scattered clouds
Sakaiminato,35.55,133.23,55.4,93,75,3.36,JP,2020-10-17 00:19:49,broken clouds
Buckingham,52.0,-0.99,50.0,90,92,6.51,GB,2020-10-17 00:19:49,overcast clouds
Filadelfia,39.95,-75.16,53.6,87,75,4.7,US,2020-10-17 00:18:51,broken clouds
Chaykovskaya,58.13,55.54,32.0,91,90,4.47,RU,2020-10-17 00:19:49,light rain
Amahai,-3.33,128.92,84.99,86,91,3.0,ID,2020-10-17 00:19:49,light rain
Yarim,14.3,44.38,49.89,43,0,3.78,YE,2020-10-17 00:19:50,clear sky
Newport,51.59,-3.0,48.99,94,45,6.35,GB,2020-10-17 00:19:50,scattered clouds
Taltal,-25.4,-70.48,61.21,61,22,6.24,CL,2020-10-17 00:19:50,few clouds
Emerald,-23.53,148.17,75.99,50,40,12.75,AU,2020-10-17 00:19:50,scattered clouds
Araouane,18.9,-3.53,91.83,13,0,9.78,ML,2020-10-17 00:19:50,clear sky
Bandarbeyla,9.49,50.81,79.7,78,4,11.99,SO,2020-10-17 00:19:50,light rain
North Myrtle Beach,33.82,-78.68,68.0,82,90,5.82,US,2020-10-17 00:17:30,overcast clouds
Lenger,42.18,69.88,48.2,49,0,8.95,KZ,2020-10-17 00:19:50,clear sky
Laela,-8.57,32.05,66.78,62,46,2.35,TZ,2020-10-17 00:19:51,scattered clouds
Miandrivazo,-19.52,45.47,75.43,79,3,2.48,MG,2020-10-17 00:19:51,clear sky
Ialibu,-6.28,143.99,59.04,97,100,0.69,PG,2020-10-17 00:19:51,light rain
Benguela,-12.58,13.41,75.9,76,97,7.11,AO,2020-10-17 00:19:51,light rain
Laiyang,36.98,120.71,54.0,79,0,3.11,CN,2020-10-17 00:19:51,clear sky
Oga,46.46,10.35,48.99,92,75,2.24,IT,2020-10-17 00:19:51,broken clouds
Chester,40.13,-75.87,51.01,81,90,6.93,US,2020-10-17 00:19:51,overcast clouds
Bani,18.28,-70.33,80.01,100,75,11.95,DO,2020-10-17 00:18:18,thunderstorm with light rain
Chihuahua,28.5,-106.0,80.6,22,5,13.87,MX,2020-10-17 00:15:21,clear sky
Hami,42.8,93.45,43.32,50,2,9.8,CN,2020-10-17 00:19:52,clear sky
Suraabad,40.82,49.47,60.8,93,0,9.17,AZ,2020-10-17 00:19:52,clear sky
Bose,45.46,8.01,51.01,83,30,3.0,IT,2020-10-17 00:19:52,scattered clouds
Banyo,6.75,11.82,64.98,90,47,2.24,CM,2020-10-17 00:19:52,scattered clouds
Puerto Asis,0.51,-76.5,73.4,100,90,1.12,CO,2020-10-17 00:19:52,overcast clouds
Auburn,47.31,-122.23,63.0,82,90,23.04,US,2020-10-17 00:17:56,overcast clouds
Waingapu,-9.66,120.26,82.81,56,76,4.72,ID,2020-10-17 00:19:52,broken clouds
Chirongui,-12.93,45.15,78.8,78,20,6.93,YT,2020-10-17 00:19:52,few clouds
Pochutla,15.74,-96.47,82.99,74,5,11.41,MX,2020-10-17 00:19:52,clear sky
Atlantic City,39.36,-74.42,52.0,93,90,4.7,US,2020-10-17 00:19:53,light rain
Zhangye,38.93,100.45,40.57,55,20,3.22,CN,2020-10-17 00:19:53,few clouds
Durango,24.83,-104.83,65.59,52,46,9.6,MX,2020-10-17 00:17:57,scattered clouds
Nanortalik,60.14,-45.24,40.57,78,93,10.85,GL,2020-10-17 00:19:53,overcast clouds
Praia,14.92,-23.51,77.0,88,94,5.82,CV,2020-10-17 00:19:53,overcast clouds
Balotra,25.83,72.23,85.19,29,61,11.56,IN,2020-10-17 00:19:53,broken clouds
Havelock,34.88,-76.9,60.8,87,90,9.17,US,2020-10-17 00:19:53,overcast clouds
Daytona Beach,29.21,-81.02,79.0,83,75,6.93,US,2020-10-17 00:19:53,broken clouds
Canton,23.12,113.25,73.0,60,40,13.42,CN,2020-10-17 00:19:53,scattered clouds
Amapa,1.0,-52.0,80.64,48,76,5.88,BR,2020-10-17 00:19:54,broken clouds
Bentiu,9.23,29.83,74.52,82,100,3.29,SS,2020-10-17 00:19:54,overcast clouds
Atambua,-9.11,124.89,84.65,43,3,1.36,ID,2020-10-17 00:19:54,clear sky
Semey,50.41,80.23,33.8,56,20,8.95,KZ,2020-10-17 00:19:54,few clouds
Quilmana,-12.95,-76.38,65.91,72,10,4.74,PE,2020-10-17 00:19:54,clear sky
Hede,33.77,120.25,59.9,67,2,7.11,CN,2020-10-17 00:19:54,clear sky
Koslan,63.46,48.9,31.62,98,100,5.14,RU,2020-10-17 00:19:54,overcast clouds
San Quintin,30.48,-115.95,76.66,59,0,11.99,MX,2020-10-17 00:19:55,clear sky
Idlib,35.93,36.63,66.2,88,0,4.7,SY,2020-10-17 00:19:55,clear sky
Sulphur Springs,33.14,-95.6,62.6,44,1,5.82,US,2020-10-17 00:19:55,clear sky
Matara,5.95,80.54,76.75,86,22,10.22,LK,2020-10-17 00:19:55,few clouds
Tazovskiy,67.47,78.7,28.92,98,100,20.85,RU,2020-10-17 00:19:55,overcast clouds
Garden City,42.33,-83.33,50.0,34,40,9.17,US,2020-10-17 00:19:55,scattered clouds
Magistralnyy,56.17,107.45,25.7,91,80,6.02,RU,2020-10-17 00:19:55,broken clouds
Nata,8.33,-80.52,75.99,78,77,5.01,PA,2020-10-17 00:19:55,light rain
Buenos Aires,-34.61,-58.38,70.0,88,0,11.41,AR,2020-10-17 00:16:51,clear sky
La Ligua,-32.45,-71.23,53.11,82,0,1.74,CL,2020-10-17 00:19:56,clear sky
Luanda,-8.84,13.23,77.0,83,75,5.82,AO,2020-10-17 00:16:03,broken clouds
Pitimbu,-7.47,-34.81,77.0,88,20,5.82,BR,2020-10-17 00:19:56,few clouds
Alekseyevsk,57.84,108.35,26.28,93,100,10.09,RU,2020-10-17 00:19:56,overcast clouds
La Rioja,42.25,-2.5,43.0,100,90,2.24,ES,2020-10-17 00:19:56,fog
Teknaf,20.86,92.31,79.39,88,98,6.67,BD,2020-10-17 00:19:56,overcast clouds
Skorodnoye,51.07,37.23,51.8,81,75,6.71,RU,2020-10-17 00:19:56,broken clouds
San Policarpo,12.18,125.51,82.87,78,94,5.55,PH,2020-10-17 00:19:56,overcast clouds
Rafsanjan,30.41,55.99,45.1,48,0,3.4,IR,2020-10-17 00:19:57,clear sky
Pangody,65.85,74.49,35.01,97,100,14.03,RU,2020-10-17 00:19:57,moderate rain
Bonavista,48.65,-53.11,48.0,81,48,1.01,CA,2020-10-17 00:19:57,scattered clouds
Brejo Da Madre De Deus,-8.15,-36.37,65.53,96,69,7.76,BR,2020-10-17 00:19:57,broken clouds
Wilmington,34.23,-77.94,64.99,77,75,9.17,US,2020-10-17 00:18:42,broken clouds
Padang,-0.95,100.35,78.69,71,100,2.82,ID,2020-10-17 00:19:50,light rain
Caborca,30.58,-111.1,95.0,18,5,4.0,MX,2020-10-17 00:19:57,clear sky
Hinton,53.4,-117.59,26.53,95,100,6.55,CA,2020-10-17 00:19:57,overcast clouds
Kandrian,-6.22,149.55,82.38,79,94,4.36,PG,2020-10-17 00:19:57,light rain
Anadyr,64.75,177.48,37.0,100,75,8.95,RU,2020-10-17 00:19:58,broken clouds
Abadan,30.34,48.3,68.0,42,0,7.83,IR,2020-10-17 00:19:58,clear sky
San Luis,-33.3,-66.34,73.85,44,0,9.66,AR,2020-10-17 00:15:08,clear sky
Munkebo,55.46,10.56,47.89,80,3,9.95,DK,2020-10-17 00:19:58,clear sky
Bereda,43.27,-7.54,48.0,100,100,3.0,ES,2020-10-17 00:19:58,overcast clouds
Santa Cruz De Yojoa,14.98,-87.9,80.6,88,75,3.36,HN,2020-10-17 00:19:58,broken clouds
Warrnambool,-38.38,142.48,57.0,90,100,3.0,AU,2020-10-17 00:19:58,overcast clouds
Pozo Colorado,-23.49,-58.8,81.01,50,94,4.32,PY,2020-10-17 00:19:58,overcast clouds
Kailua,21.4,-157.74,84.2,66,90,10.29,US,2020-10-17 00:19:58,overcast clouds
Vettavalam,12.1,79.25,76.42,84,81,3.18,IN,2020-10-17 00:19:59,broken clouds
Channel-Port Aux Basques,47.57,-59.14,51.01,81,0,11.97,CA,2020-10-17 00:19:59,clear sky
Troitsko-Pechorsk,62.71,56.2,30.96,97,98,7.09,RU,2020-10-17 00:19:59,overcast clouds
Hay River,60.82,-115.8,24.8,85,90,21.92,CA,2020-10-17 00:19:59,light snow
Saint-Ambroise,48.55,-71.33,46.99,93,90,8.05,CA,2020-10-17 00:18:09,mist
Ulladulla,-35.35,150.47,70.0,68,100,5.82,AU,2020-10-17 00:19:59,overcast clouds
Tevriz,57.51,72.4,46.08,84,86,8.39,RU,2020-10-17 00:19:59,overcast clouds
Moyale,3.52,39.06,69.73,74,60,13.09,KE,2020-10-17 00:20:00,broken clouds
Sao Jose Do Belmonte,-7.86,-38.76,80.2,32,3,13.91,BR,2020-10-17 00:20:00,clear sky
Aktau,43.65,51.2,41.0,52,0,8.95,KZ,2020-10-17 00:16:58,clear sky
Kimbe,-5.55,150.14,87.44,63,96,2.35,PG,2020-10-17 00:20:00,light rain
Skala Fourkas,40.0,23.38,68.0,100,98,1.01,GR,2020-10-17 00:20:00,overcast clouds
Chaohu,31.6,117.87,53.6,100,90,4.47,CN,2020-10-17 00:20:00,fog
Sun City West,33.66,-112.34,100.0,6,1,1.83,US,2020-10-17 00:18:30,clear sky
Battonya,46.28,21.02,48.0,100,40,4.7,HU,2020-10-17 00:20:01,light rain
Lethem,3.38,-59.8,84.42,47,41,5.23,GY,2020-10-17 00:20:01,scattered clouds
Niamey,13.51,2.11,86.0,48,5,5.82,NE,2020-10-17 00:17:56,clear sky
Manta,-0.95,-80.73,77.0,78,90,12.75,EC,2020-10-17 00:20:01,overcast clouds
Qui Nhon,13.77,109.23,77.18,91,100,8.57,VN,2020-10-17 00:20:01,moderate rain
Camp Verde,34.56,-111.85,91.99,10,0,7.85,US,2020-10-17 00:20:01,clear sky
Amol,36.47,52.35,59.18,78,0,2.3,IR,2020-10-17 00:20:02,clear sky
Danilov,58.19,40.17,35.6,93,90,8.95,RU,2020-10-17 00:20:02,overcast clouds
Mae Ramat,16.98,98.52,75.2,100,75,1.57,TH,2020-10-17 00:20:02,broken clouds
Palmas Bellas,9.23,-80.09,82.4,88,40,5.82,PA,2020-10-17 00:20:02,scattered clouds
Manokwari,-0.87,134.08,82.09,75,100,2.73,ID,2020-10-17 00:20:03,light rain
Mnogovershinnyy,53.94,139.92,33.85,85,70,8.25,RU,2020-10-17 00:20:03,broken clouds
Manaure,11.78,-72.44,84.97,72,1,12.82,CO,2020-10-17 00:20:03,clear sky
Lat Yao,15.75,99.79,73.94,97,100,5.26,TH,2020-10-17 00:20:03,light rain
Tanete,-3.94,119.78,74.82,85,100,6.98,ID,2020-10-17 00:20:04,overcast clouds
Birobidzhan,48.8,132.95,38.05,73,18,8.32,RU,2020-10-17 00:20:04,few clouds
Thetford Mines,46.09,-71.3,46.0,95,100,1.99,CA,2020-10-17 00:20:04,light rain
Salamiyah,35.01,37.05,59.11,87,0,4.05,SY,2020-10-17 00:20:04,clear sky
Kalmunai,7.42,81.82,75.72,78,55,3.87,LK,2020-10-17 00:20:04,broken clouds
Antalaha,-14.9,50.28,67.98,85,2,6.62,MG,2020-10-17 00:17:07,clear sky
Nadym,65.53,72.52,33.42,97,100,18.92,RU,2020-10-17 00:20:05,moderate rain
Nouakchott,18.09,-15.98,86.0,51,66,10.29,MR,2020-10-17 00:17:24,broken clouds
Villa Del Rosario,7.83,-72.47,87.8,52,40,9.17,CO,2020-10-17 00:20:05,scattered clouds
Cassilandia,-19.11,-51.73,74.86,70,4,2.21,BR,2020-10-17 00:20:05,clear sky
Nan,18.83,100.67,73.4,100,40,2.24,TH,2020-10-17 00:20:05,scattered clouds
Lengshuijiang,27.69,111.43,55.89,90,100,3.11,CN,2020-10-17 00:20:05,overcast clouds
Yaan,7.38,8.57,72.95,97,97,6.26,NG,2020-10-17 00:20:05,light rain
Aleksandrov Gay,50.15,48.57,58.95,64,97,9.46,RU,2020-10-17 00:20:06,overcast clouds
Khor,47.89,134.95,40.89,68,0,13.15,RU,2020-10-17 00:20:06,clear sky
Tarata,-17.62,-66.02,55.4,93,75,5.82,BO,2020-10-17 00:20:06,light rain
Kanniyakumari,8.08,77.57,78.53,81,0,17.72,IN,2020-10-17 00:19:20,clear sky
Caracoli,6.41,-74.76,73.98,82,82,2.51,CO,2020-10-17 00:20:06,broken clouds
